{"businesses": [{"id": "XsXLVWr1UZWVhKThNvNiaA", "alias": "blue-willow-\u591c\u6765\u6e58-new-york-2", "name": "Blue Willow \u591c\u6765\u6e58", "image_url": "https://s3-media1.fl.yelpcdn.com/bphoto/WNAXXU1q01iEma7jXO9tqA/o.jpg", "is_closed": false, "url": "https://www.yelp.com/biz/blue-willow-%E5%A4%9C%E6%9D%A5%E6%B9%98-new-york-2?adjust_creative=V8gR_qwyEVy4K2y5Y4_HBA&utm_campaign=yelp_api_v3&utm_medium=api_v3_business_search&utm_source=V8gR_qwyEVy4K2y5Y4_HBA", "review_count": 12, "categories": [{"alias": "szechuan", "title": "Szechuan"}], "rating": 5.0, "coordinates": {"latitude": 40.76292, "longitude": -73.976546}, "transactions": ["pickup", "delivery"], "location": {"address1": "40 W 56th St", "address2": null, "address3": "", "city": "New York", "zip_code": "10019", "country": "US", "state": "NY", "display_address": ["40 W 56th St", "New York, NY 10019"]}, "phone": "+12122132299", "display_phone": "(212) 213-2299", "distance": 343.45647029249216}, {"id": "EmJ7rfmv2y6lQZxgA8U__g", "alias": "red-peony-chinese-cuisine-new-york-4", "name": "Red Peony Chinese Cuisine", "image_url": "https://s3-media4.fl.yelpcdn.com/bphoto/bD0jgTj0uJdBsd2vrN-JLQ/o.jpg", "is_closed": false, "url": "https://www.yelp.com/biz/red-peony-chinese-cuisine-new-york-4?adjust_creative=V8gR_qwyEVy4K2y5Y4_HBA&utm_campaign=yelp_api_v3&utm_medium=api_v3_business_search&utm_source=V8gR_qwyEVy4K2y5Y4_HBA", "review_count": 289, "categories": [{"alias": "shanghainese", "title": "Shanghainese"}, {"alias": "szechuan", "title": "Szechuan"}, {"alias": "cantonese", "title": "Cantonese"}], "rating": 4.5, "coordinates": {"latitude": 40.76278, "longitude": -73.97589}, "transactions": ["pickup", "delivery"], "price": "$$", "location": {"address1": "24 W 56th St", "address2": null, "address3": "", "city": "New York", "zip_code": "10019", "country": "US", "state": "NY", "display_address": ["24 W 56th St", "New York, NY 10019"]}, "phone": "+12123808883", "display_phone": "(212) 380-8883", "distance": 356.8773494815648}, {"id": "FXhSEZfIqjMZh4hR0_8jMQ", "alias": "china-xiang-\u4e2d\u56fd\u6e58-new-york-2", "name": "China Xiang \u4e2d\u56fd\u6e58", "image_url": "https://s3-media3.fl.yelpcdn.com/bphoto/MC6-poc5wb7mP-jO7qfHHw/o.jpg", "is_closed": false, "url": "https://www.yelp.com/biz/china-xiang-%E4%B8%AD%E5%9B%BD%E6%B9%98-new-york-2?adjust_creative=V8gR_qwyEVy4K2y5Y4_HBA&utm_campaign=yelp_api_v3&utm_medium=api_v3_business_search&utm_source=V8gR_qwyEVy4K2y5Y4_HBA", "review_count": 482, "categories": [{"alias": "chinese", "title": "Chinese"}], "rating": 4.0, "coordinates": {"latitude": 40.7582902125633, "longitude": -73.9925113993899}, "transactions": ["pickup", "delivery"], "price": "$$", "location": {"address1": "360 W 42nd Street", "address2": "", "address3": "", "city": "New York", "zip_code": "10036", "country": "US", "state": "NY", "display_address": ["360 W 42nd Street", "New York, NY 10036"]}, "phone": "+12129676088", "display_phone": "(212) 967-6088", "distance": 1199.3368442478525}, {"id": "bVkjBJlAIwKAj9Aw1KVWjA", "alias": "dim-sum-palace-new-york-8", "name": "Dim Sum Palace", "image_url": "https://s3-media1.fl.yelpcdn.com/bphoto/CiBorfjWPAMbLogwW18TCg/o.jpg", "is_closed": false, "url": "https://www.yelp.com/biz/dim-sum-palace-new-york-8?adjust_creative=V8gR_qwyEVy4K2y5Y4_HBA&utm_campaign=yelp_api_v3&utm_medium=api_v3_business_search&utm_source=V8gR_qwyEVy4K2y5Y4_HBA", "review_count": 1269, "categories": [{"alias": "dimsum", "title": "Dim Sum"}, {"alias": "cantonese", "title": "Cantonese"}], "rating": 4.0, "coordinates": {"latitude": 40.76015, "longitude": -73.9893699}, "transactions": ["pickup", "delivery"], "price": "$$", "location": {"address1": "334 W 46th St", "address2": null, "address3": "", "city": "New York", "zip_code": "10036", "country": "US", "state": "NY", "display_address": ["334 W 46th St", "New York, NY 10036"]}, "phone": "+16468611910", "display_phone": "(646) 861-1910", "distance": 913.3425917326555}, {"id": "v0opDMezc6pKgdfR22KUnQ", "alias": "da-tang-szechuan-new-york-2", "name": "Da Tang Szechuan", "image_url": "https://s3-media2.fl.yelpcdn.com/bphoto/ByzWS78I4dlPB3U1HXVLDw/o.jpg", "is_closed": false, "url": "https://www.yelp.com/biz/da-tang-szechuan-new-york-2?adjust_creative=V8gR_qwyEVy4K2y5Y4_HBA&utm_campaign=yelp_api_v3&utm_medium=api_v3_business_search&utm_source=V8gR_qwyEVy4K2y5Y4_HBA", "review_count": 251, "categories": [{"alias": "szechuan", "title": "Szechuan"}], "rating": 4.5, "coordinates": {"latitude": 40.75128, "longitude": -73.98376}, "transactions": ["pickup", "delivery"], "price": "$$", "location": {"address1": "18 W 38th St", "address2": null, "address3": "", "city": "New York", "zip_code": "10018", "country": "US", "state": "NY", "display_address": ["18 W 38th St", "New York, NY 10018"]}, "phone": "+16464788345", "display_phone": "(646) 478-8345", "distance": 1095.7937919448566}, {"id": "xq0cX_DgxiJMXwhmEl9kUA", "alias": "caf\u00e9-china-new-york-2", "name": "Caf\u00e9 China", "image_url": "https://s3-media1.fl.yelpcdn.com/bphoto/UhHqxEX2epOvrBFI2pgRzg/o.jpg", "is_closed": false, "url": "https://www.yelp.com/biz/caf%C3%A9-china-new-york-2?adjust_creative=V8gR_qwyEVy4K2y5Y4_HBA&utm_campaign=yelp_api_v3&utm_medium=api_v3_business_search&utm_source=V8gR_qwyEVy4K2y5Y4_HBA", "review_count": 1639, "categories": [{"alias": "szechuan", "title": "Szechuan"}], "rating": 4.0, "coordinates": {"latitude": 40.7499225208569, "longitude": -73.9819464127197}, "transactions": ["pickup", "restaurant_reservation", "delivery"], "price": "$$", "location": {"address1": "13 E 37th St", "address2": null, "address3": "", "city": "New York", "zip_code": "10016", "country": "US", "state": "NY", "display_address": ["13 E 37th St", "New York, NY 10016"]}, "phone": "+12122132810", "display_phone": "(212) 213-2810", "distance": 1180.6956479004084}, {"id": "vODvsWDPppO5-AoKpjcQ8w", "alias": "fu-xing-new-york-2", "name": "Fu Xing", "image_url": "https://s3-media2.fl.yelpcdn.com/bphoto/jwrVmHGlAT6NhVhh89Tq-g/o.jpg", "is_closed": false, "url": "https://www.yelp.com/biz/fu-xing-new-york-2?adjust_creative=V8gR_qwyEVy4K2y5Y4_HBA&utm_campaign=yelp_api_v3&utm_medium=api_v3_business_search&utm_source=V8gR_qwyEVy4K2y5Y4_HBA", "review_count": 8, "categories": [{"alias": "chinese", "title": "Chinese"}], "rating": 4.5, "coordinates": {"latitude": 40.7547, "longitude": -73.991055}, "transactions": ["delivery"], "price": "$", "location": {"address1": "273 W 38th St", "address2": "", "address3": null, "city": "New York", "zip_code": "10018", "country": "US", "state": "NY", "display_address": ["273 W 38th St", "New York, NY 10018"]}, "phone": "+12125756978", "display_phone": "(212) 575-6978", "distance": 1226.9997464079509}, {"id": "qGgQMVExGERqGhZNDM2ROg", "alias": "wu-liang-ye-new-york", "name": "Wu Liang Ye", "image_url": "https://s3-media1.fl.yelpcdn.com/bphoto/rv-9L-afOoeWe3Qa-Nhpxw/o.jpg", "is_closed": false, "url": "https://www.yelp.com/biz/wu-liang-ye-new-york?adjust_creative=V8gR_qwyEVy4K2y5Y4_HBA&utm_campaign=yelp_api_v3&utm_medium=api_v3_business_search&utm_source=V8gR_qwyEVy4K2y5Y4_HBA", "review_count": 507, "categories": [{"alias": "szechuan", "title": "Szechuan"}], "rating": 3.5, "coordinates": {"latitude": 40.75781, "longitude": -73.97994}, "transactions": ["pickup", "delivery"], "price": "$$", "location": {"address1": "36 W 48th St", "address2": "", "address3": "", "city": "New York", "zip_code": "10036", "country": "US", "state": "NY", "display_address": ["36 W 48th St", "New York, NY 10036"]}, "phone": "+12123982308", "display_phone": "(212) 398-2308", "distance": 290.85541567850277}, {"id": "mUl0wtO7tPkBocuJqZ-7Dw", "alias": "dun-huang-grand-central-new-york-4", "name": "Dun Huang -  Grand Central", "image_url": "https://s3-media2.fl.yelpcdn.com/bphoto/VLB4BQCJLUtSuf_SWYMXYQ/o.jpg", "is_closed": false, "url": "https://www.yelp.com/biz/dun-huang-grand-central-new-york-4?adjust_creative=V8gR_qwyEVy4K2y5Y4_HBA&utm_campaign=yelp_api_v3&utm_medium=api_v3_business_search&utm_source=V8gR_qwyEVy4K2y5Y4_HBA", "review_count": 175, "categories": [{"alias": "chinese", "title": "Chinese"}, {"alias": "noodles", "title": "Noodles"}], "rating": 4.5, "coordinates": {"latitude": 40.74922, "longitude": -73.97785}, "transactions": ["pickup", "delivery"], "price": "$$", "location": {"address1": "320 Lexington Ave", "address2": null, "address3": null, "city": "New York", "zip_code": "10016", "country": "US", "state": "NY", "display_address": ["320 Lexington Ave", "New York, NY 10016"]}, "phone": "+16469644007", "display_phone": "(646) 964-4007", "distance": 1219.9941585876395}, {"id": "w3wKbjuNCZnYoPOr-FCk5w", "alias": "new-moon-new-york", "name": "New Moon", "image_url": "https://s3-media1.fl.yelpcdn.com/bphoto/kE6lAgB1pe-FWe1NUzdeaQ/o.jpg", "is_closed": false, "url": "https://www.yelp.com/biz/new-moon-new-york?adjust_creative=V8gR_qwyEVy4K2y5Y4_HBA&utm_campaign=yelp_api_v3&utm_medium=api_v3_business_search&utm_source=V8gR_qwyEVy4K2y5Y4_HBA", "review_count": 142, "categories": [{"alias": "chinese", "title": "Chinese"}], "rating": 4.0, "coordinates": {"latitude": 40.742577537761, "longitude": -73.9778442308307}, "transactions": ["pickup", "delivery"], "price": "$$", "location": {"address1": "536 3rd Ave", "address2": "", "address3": null, "city": "New York", "zip_code": "10016", "country": "US", "state": "NY", "display_address": ["536 3rd Ave", "New York, NY 10016"]}, "phone": "+12127792828", "display_phone": "(212) 779-2828", "distance": 1961.9628766826427}, {"id": "Y92VtOkTZ6BirkJbUKCMOw", "alias": "rong-cheng-house-new-york-4", "name": "Rong Cheng House", "image_url": "https://s3-media2.fl.yelpcdn.com/bphoto/-CeFeobbGLTpx55_nO7LgQ/o.jpg", "is_closed": false, "url": "https://www.yelp.com/biz/rong-cheng-house-new-york-4?adjust_creative=V8gR_qwyEVy4K2y5Y4_HBA&utm_campaign=yelp_api_v3&utm_medium=api_v3_business_search&utm_source=V8gR_qwyEVy4K2y5Y4_HBA", "review_count": 64, "categories": [{"alias": "szechuan", "title": "Szechuan"}], "rating": 4.0, "coordinates": {"latitude": 40.76572, "longitude": -73.98286}, "transactions": ["pickup", "delivery"], "price": "$$", "location": {"address1": "242 W 56th St", "address2": "", "address3": null, "city": "New York", "zip_code": "10019", "country": "US", "state": "NY", "display_address": ["242 W 56th St", "New York, NY 10019"]}, "phone": "+12122652226", "display_phone": "(212) 265-2226", "distance": 711.3644427839041}, {"id": "ojbH3wnRu050hRhkmoxRiA", "alias": "han-dynasty-new-york-4", "name": "Han Dynasty", "image_url": "https://s3-media3.fl.yelpcdn.com/bphoto/fe5QaNZH6Qc-dbIDPwE2Ww/o.jpg", "is_closed": false, "url": "https://www.yelp.com/biz/han-dynasty-new-york-4?adjust_creative=V8gR_qwyEVy4K2y5Y4_HBA&utm_campaign=yelp_api_v3&utm_medium=api_v3_business_search&utm_source=V8gR_qwyEVy4K2y5Y4_HBA", "review_count": 602, "categories": [{"alias": "szechuan", "title": "Szechuan"}], "rating": 4.0, "coordinates": {"latitude": 40.78752, "longitude": -73.97647}, "transactions": ["pickup", "restaurant_reservation", "delivery"], "price": "$$", "location": {"address1": "215 W 85th St", "address2": "", "address3": "", "city": "New York", "zip_code": "10024", "country": "US", "state": "NY", "display_address": ["215 W 85th St", "New York, NY 10024"]}, "phone": "+12128589060", "display_phone": "(212) 858-9060", "distance": 3045.824094143192}, {"id": "6tASYtO9zOrXr8-LPnAToQ", "alias": "zest-szechuan-new-york", "name": "Zest Szechuan", "image_url": "https://s3-media4.fl.yelpcdn.com/bphoto/gRwi2bF4FXIZKHgFObryqA/o.jpg", "is_closed": false, "url": "https://www.yelp.com/biz/zest-szechuan-new-york?adjust_creative=V8gR_qwyEVy4K2y5Y4_HBA&utm_campaign=yelp_api_v3&utm_medium=api_v3_business_search&utm_source=V8gR_qwyEVy4K2y5Y4_HBA", "review_count": 589, "categories": [{"alias": "szechuan", "title": "Szechuan"}, {"alias": "seafood", "title": "Seafood"}, {"alias": "dimsum", "title": "Dim Sum"}], "rating": 4.0, "coordinates": {"latitude": 40.75274, "longitude": -73.98445}, "transactions": ["pickup", "delivery"], "price": "$$", "location": {"address1": "45 W 39th St", "address2": null, "address3": "", "city": "New York", "zip_code": "10018", "country": "US", "state": "NY", "display_address": ["45 W 39th St", "New York, NY 10018"]}, "phone": "+16468700521", "display_phone": "(646) 870-0521", "distance": 971.2384767814051}, {"id": "jc7lVTvmYMIK5RNpENtS6w", "alias": "szechuan-mountain-house-new-york-2", "name": "Szechuan Mountain House", "image_url": "https://s3-media1.fl.yelpcdn.com/bphoto/aeWNARNKSlp6qXyXo5RiBA/o.jpg", "is_closed": false, "url": "https://www.yelp.com/biz/szechuan-mountain-house-new-york-2?adjust_creative=V8gR_qwyEVy4K2y5Y4_HBA&utm_campaign=yelp_api_v3&utm_medium=api_v3_business_search&utm_source=V8gR_qwyEVy4K2y5Y4_HBA", "review_count": 364, "categories": [{"alias": "szechuan", "title": "Szechuan"}], "rating": 4.0, "coordinates": {"latitude": 40.72911, "longitude": -73.98858}, "transactions": ["pickup", "delivery"], "price": "$$", "location": {"address1": "23 St Marks Pl", "address2": "", "address3": null, "city": "New York", "zip_code": "10003", "country": "US", "state": "NY", "display_address": ["23 St Marks Pl", "New York, NY 10003"]}, "phone": "+19173883866", "display_phone": "(917) 388-3866", "distance": 3550.4406899367855}, {"id": "wDuf4Qz9qsC62amLZgWNJQ", "alias": "little-alley-new-york", "name": "Little Alley", "image_url": "https://s3-media2.fl.yelpcdn.com/bphoto/cO7HS1-JRRM6Ak-jRC1oaQ/o.jpg", "is_closed": false, "url": "https://www.yelp.com/biz/little-alley-new-york?adjust_creative=V8gR_qwyEVy4K2y5Y4_HBA&utm_campaign=yelp_api_v3&utm_medium=api_v3_business_search&utm_source=V8gR_qwyEVy4K2y5Y4_HBA", "review_count": 370, "categories": [{"alias": "shanghainese", "title": "Shanghainese"}], "rating": 4.0, "coordinates": {"latitude": 40.74744, "longitude": -73.97728}, "transactions": ["pickup", "delivery"], "price": "$$", "location": {"address1": "550 3rd Ave", "address2": null, "address3": "", "city": "New York", "zip_code": "10016", "country": "US", "state": "NY", "display_address": ["550 3rd Ave", "New York, NY 10016"]}, "phone": "+16469983976", "display_phone": "(646) 998-3976", "distance": 1425.4994058070586}, {"id": "0vg2Z-HPwkyVVX613j2ysg", "alias": "pengs-noodle-folk-new-york-2", "name": "Peng's Noodle Folk", "image_url": "https://s3-media3.fl.yelpcdn.com/bphoto/wvHPziTEoK6D-_YclkYQuA/o.jpg", "is_closed": false, "url": "https://www.yelp.com/biz/pengs-noodle-folk-new-york-2?adjust_creative=V8gR_qwyEVy4K2y5Y4_HBA&utm_campaign=yelp_api_v3&utm_medium=api_v3_business_search&utm_source=V8gR_qwyEVy4K2y5Y4_HBA", "review_count": 449, "categories": [{"alias": "chinese", "title": "Chinese"}, {"alias": "noodles", "title": "Noodles"}, {"alias": "ramen", "title": "Ramen"}], "rating": 4.5, "coordinates": {"latitude": 40.77726, "longitude": -73.94932}, "transactions": ["pickup", "delivery"], "price": "$$", "location": {"address1": "1659 1st Ave", "address2": "", "address3": null, "city": "New York", "zip_code": "10028", "country": "US", "state": "NY", "display_address": ["1659 1st Ave", "New York, NY 10028"]}, "phone": "+19293913950", "display_phone": "(929) 391-3950", "distance": 3103.7827907566284}, {"id": "YdAtCf_13UK-uvXuOMrhNg", "alias": "radiance-new-york-2", "name": "Radiance", "image_url": "https://s3-media3.fl.yelpcdn.com/bphoto/LUKcSH6gt8OsMlBPKgEzVw/o.jpg", "is_closed": false, "url": "https://www.yelp.com/biz/radiance-new-york-2?adjust_creative=V8gR_qwyEVy4K2y5Y4_HBA&utm_campaign=yelp_api_v3&utm_medium=api_v3_business_search&utm_source=V8gR_qwyEVy4K2y5Y4_HBA", "review_count": 174, "categories": [{"alias": "chinese", "title": "Chinese"}, {"alias": "tea", "title": "Tea Rooms"}, {"alias": "venues", "title": "Venues & Event Spaces"}], "rating": 3.5, "coordinates": {"latitude": 40.7555779423723, "longitude": -73.9703503944427}, "transactions": ["pickup", "delivery"], "price": "$$", "location": {"address1": "208 E 50th St", "address2": "", "address3": "2nd & 3rd Ave", "city": "New York", "zip_code": "10022", "country": "US", "state": "NY", "display_address": ["208 E 50th St", "2nd & 3rd Ave", "New York, NY 10022"]}, "phone": "+12128888060", "display_phone": "(212) 888-8060", "distance": 858.5242927620424}, {"id": "-lgNzAEyFr8LCTuBTWnAMg", "alias": "dim-sum-palace-new-york-7", "name": "Dim Sum Palace", "image_url": "https://s3-media1.fl.yelpcdn.com/bphoto/JGfP2MOKU3WDmhXjUUk2Xg/o.jpg", "is_closed": false, "url": "https://www.yelp.com/biz/dim-sum-palace-new-york-7?adjust_creative=V8gR_qwyEVy4K2y5Y4_HBA&utm_campaign=yelp_api_v3&utm_medium=api_v3_business_search&utm_source=V8gR_qwyEVy4K2y5Y4_HBA", "review_count": 305, "categories": [{"alias": "dimsum", "title": "Dim Sum"}, {"alias": "seafood", "title": "Seafood"}, {"alias": "noodles", "title": "Noodles"}], "rating": 4.0, "coordinates": {"latitude": 40.7628979550614, "longitude": -73.9759572967887}, "transactions": ["pickup", "delivery"], "price": "$$", "location": {"address1": "28 W 56th St", "address2": null, "address3": "", "city": "New York", "zip_code": "10019", "country": "US", "state": "NY", "display_address": ["28 W 56th St", "New York, NY 10019"]}, "phone": "+16466093966", "display_phone": "(646) 609-3966", "distance": 367.2627184605128}, {"id": "Qgv2vyUV-DwK8YwrhU-jtw", "alias": "lan-sheng-restaurant-new-york", "name": "Lan Sheng Restaurant", "image_url": "https://s3-media3.fl.yelpcdn.com/bphoto/Ml7xFnyp0BHTbWrNzug-QA/o.jpg", "is_closed": false, "url": "https://www.yelp.com/biz/lan-sheng-restaurant-new-york?adjust_creative=V8gR_qwyEVy4K2y5Y4_HBA&utm_campaign=yelp_api_v3&utm_medium=api_v3_business_search&utm_source=V8gR_qwyEVy4K2y5Y4_HBA", "review_count": 164, "categories": [{"alias": "szechuan", "title": "Szechuan"}], "rating": 4.0, "coordinates": {"latitude": 40.7517141867087, "longitude": -73.9883603449123}, "transactions": ["pickup", "delivery"], "price": "$$", "location": {"address1": "128 W 36th St", "address2": null, "address3": "", "city": "New York", "zip_code": "10018", "country": "US", "state": "NY", "display_address": ["128 W 36th St", "New York, NY 10018"]}, "phone": "+12125758899", "display_phone": "(212) 575-8899", "distance": 1258.2557736648746}, {"id": "4FD0TAxe70nb3ngk3sXF9Q", "alias": "uluh-new-york", "name": "Uluh", "image_url": "https://s3-media3.fl.yelpcdn.com/bphoto/ZPv7XlXR5ZnD3S_AAV3jXg/o.jpg", "is_closed": false, "url": "https://www.yelp.com/biz/uluh-new-york?adjust_creative=V8gR_qwyEVy4K2y5Y4_HBA&utm_campaign=yelp_api_v3&utm_medium=api_v3_business_search&utm_source=V8gR_qwyEVy4K2y5Y4_HBA", "review_count": 277, "categories": [{"alias": "tea", "title": "Tea Rooms"}, {"alias": "dimsum", "title": "Dim Sum"}], "rating": 4.0, "coordinates": {"latitude": 40.7293403, "longitude": -73.9866071}, "transactions": ["pickup", "delivery"], "price": "$$$", "location": {"address1": "152 2nd Ave", "address2": "Ste A", "address3": "", "city": "New York", "zip_code": "10003", "country": "US", "state": "NY", "display_address": ["152 2nd Ave", "Ste A", "New York, NY 10003"]}, "phone": "+19172615963", "display_phone": "(917) 261-5963", "distance": 3500.3658402898695}], "total": 3600, "region": {"center": {"longitude": -73.97850036621094, "latitude": 40.76021491079617}}}